"Time from drop (sec)","Geodetic Altitude (m)","Geocentric Radius (m)","Inertial FPA (deg)","Relative FPA (deg)","AoA (deg)","Sideslip (deg)","Bank Angle (deg)","Inertial Pitch (deg)","Inertial Yaw (deg)","Inertial Roll (deg)","Inertial Roll Rate (deg/sec)","Inertial Pitch Rate (deg/sec)","Inertial Yaw rate (deg/sec)","Ideal Velocity (m/s)","Inertial Velocity (m/s)","Relative Velocity (m/s)","Inertial Pos X (m)","Inertial Pos Y (m)","Inertial Pos Z (m)","Inertial Velocity X (m/s)","Inertial Velocity Y (m/s)","Inertial Velocity Z (m/s)","Acceleration X (m/s^2)","Acceleration Y (m/s^2)","Acceleration Z (m/s^2)","Mach Number","Dynamic Pressure (Pa)","Alpha*Q (deg*Pa)","Beta*Q (deg*Pa)","Stage Prop Mass (kg)","Vehicle Mass (kg)","Net Thrust (N)","AtmDens (kg/m^3)","AtmPres (Pa)","Geodetic Latitude (deg N)","Longitude (deg E)","Mean Anomaly (deg)","Time of Vacuum Impact (sec)","Geodetic Latitude of Vacuum Impact Point (deg N)","Geodetic Longitude of Vacuum Impact Point (deg N)","TotalAeroHeat (J/m^2)","AeroHeatRate (W/m^2)","Apogee Altitude over Equatorial Radius (m)","Perigee Altitude over Equatorial Radius (m)","Inclination (deg)","True Anomaly (deg)","Apogee Radius (m)","Perigee Radius (m)","ECI Longitude of Ascending Node (deg)","Argument of Perigee (deg)","Earth-relative longitude of nearest Ascending Node Crossing (deg)","Aero Force on body X axis (N)","Aero Force on Body Y axis (N)","Aero Force on Body Z axis (N)","XBodyAccel (m/s^2)","YBodyAccel (m/s^2)","ZBodyAccel (m/s^2)","Earth-relative Azimuth (deg)","Inertial Azimuth (deg)","Downrange (m)","Crossrange (m)","Eccentricity","Period (s)","A (m)","Lift (N)","Drag (N)","ECI2Body11","ECI2Body12","ECI2Body13","ECI2Body21","ECI2Body22","ECI2Body23","ECI2Body31","ECI2Body32","ECI2Body33"
0,12237.85716,6383027.112,0.1064828,0.0007340431,4,0,-0.05337828,-86,-0.05337828,-17.01,0,0,0,0,399.2556912,237.9117924,-2818996.7496,-4340873.208,3735384.96,198.20253984,-291.34350672,-187.7228148,3.857786544,5.76987924,-4.6479714,0.8228761,9327.23724224995,37308.9489689998,0,15100.5345178226,23086.808370549,0,0.316108680556985,19677.0005072581,36,-123,179.9847,50.06626,35.89558,-123.0291,0,1494.83916543351,4890.139328,-6369979.928,48.70947,179.9997,6383027.112,8157.197808,96.33157,308.845,100.0868,-5070.98598606182,66.8824371160854,-32076.2283767406,-0.2196210492,0.0028966326624,-1.3892000664,-167.2445,125.5336,0,0.00000000008841246132,0.9974474,1797.786,3195593.304,31640.0090758185,7295.15462057306,-0.5808167,-0.3586778,-0.7307545,-0.7087414,0.66439,0.2372163,0.4004218,0.6556951,-0.6400986
5,12143.134464,6382935.672,-5.015891,-8.604871,14.15366,-0.1289852,-0.3923053,-84.28301,-0.4239479,-17.08348,-0.2411073,1.467504,0.04313843,0,400.2606168,238.80007104,-2817961.6488,-4342266.144,3734394.36,215.03536368,-266.41994976,-207.33739584,2.900022648,4.140546456,-2.9903159904,0.8249129,9513.52017783885,134651.114676673,-1227.10304769826,15100.5345178226,23086.808370549,0,0.320405496841693,19971.186394485,35.9896,-123.0029,180.718,46.34426,35.89365,-123.0296,7505.07081625851,1519.90869808452,4861.8241,-6370002.152,48.55715,180.0128,6382999.68,8135.410704,96.58425,308.6828,100.3338,-4608.29087008565,328.270881853966,-97144.4894445933,-0.19958194272,0.014217191784,-4.207264128,-167.2614,125.3009,1183.4967092,0.1317055356,0.9974542,1797.765,3195565.872,93055.9065469266,28218.6060417815,-0.593,-0.3777411,-0.7110996,-0.7108643,0.6603835,0.2420034,0.3781838,0.6490033,-0.6601301
10,11969.761176,6382768.032,-2.920282,-4.093616,18.94127,-0.2036906,-0.3466852,-75.1029,-0.3941211,-17.18772,-0.1978963,1.727918,-0.008089664,99.5266488,434.6719272,324.21576,-2817007.32,-4343668.224,3733193.448,161.36788656,-302.12208816,-267.6233916,-12.85149576,-10.259577144,-9.592790568,1.112838,17789.948528351,336964.169451148,-3623.64503199439,14250.4026261212,22236.6810147713,503122.778126462,0.328331250000353,20521.2539617547,35.97739,-123.0065,180.4546,47.20865,35.84412,-123.0471,20546.8413259259,3967.77509051117,4655.15942,-6368490.92,55.93529,180.0089,6382792.416,9644.957088,86.21607,315.0776,89.9404,-21008.399109395,1232.85798233156,-276539.532381619,21.677821008,0.05543556096,-12.584664696,-166.0895,136.325,2575.785676,15.869475012,0.9969824,1798.3146,3196218.144,254711.085824565,109620.149715618,-0.6470797,-0.4751862,-0.5962264,-0.7096314,0.6613042,0.2431047,0.2787671,0.5804092,-0.7651236
20,12415.781112,6383225.232,14.19526,15.23417,14.4923,0.03064991,0.1359503,-60.4738,0.05544251,-16.97386,-0.1209559,0.7813016,-0.01473126,393.9619248,555.365412,512.5178472,-2816165.7672,-4347417.264,3730249.08,-2.3371183128,-462.3895248,-307.605684,-18.645755952,-19.045796808,-2.247453468,1.755988,41307.8411666749,598645.920425959,1266.08188773156,12084.2405117203,20070.5143644467,672909.617892309,0.308103971363348,19137.0644027886,35.94175,-123.0179,177.2037,66.18241,35.65768,-123.1123,109280.358452852,16012.4982044598,6041.212888,-6363286.8,67.91789,179.9324,6384179.256,14850.60276,74.05295,320.97,77.6733,-61132.0875873897,-873.203695962097,-336058.561364667,30.47683008,-0.04350133032,-16.964119488,-164.9636,152.4016,6660.37538,146.6743256,0.9953585,1801.0968,3199516.08,310024.677128113,143265.919744638,-0.6969477,-0.6059639,-0.3834991,-0.7082523,0.6654817,0.2356118,0.1124394,0.4358232,-0.8929813
30,14774.942256,6385602.672,26.78179,26.70551,8.948855,-0.03724024,0.9017454,-54.60646,0.7223145,-16.55398,0.3319995,-0.4324891,-0.05001361,769.5980544,760.8155472,758.2198704,-2817137.1648,-4353007.296,3727060.872,-194.53899624,-658.1518968,-328.37628,-20.250930288,-20.42986008,-1.974279516,2.620727,63241.586708479,565939.873121672,-2355.13130590922,9618.6666098061,17604.9404625325,692206.892903632,0.217274999932541,13149.4895884948,35.891,-123.0351,172.9561,100.6099,35.30259,-123.2411,402595.571235689,45588.0735124498,13527.487668,-6354454.612,76.5707,179.7847,6391665.144,23683.194696,66.97299,323.3401,70.47644,-93241.8866926606,726.518250332944,-242856.308326598,34.01741736,0.04126266576,-14.053782408,-164.2518,163.3802,12494.503184,419.6459764,0.9926167,1807.9908,3207672.528,225365.189219936,129866.007986395,-0.7053316,-0.6468106,-0.2900749,-0.7070866,0.6710184,0.2230758,0.05035784,0.3624505,-0.9306416
40,19129.988664,6389982.648,30.75695,29.74426,5.974093,-0.2568358,1.559241,-54.43286,1.348454,-15.98561,-0.9356241,0.1616456,-0.08258975,1209.0757632,1048.967676,1075.5221568,-2820182.4216,-4360596.816,3723391.08,-423.2318688,-865.901748,-414.0317856,-25.339252344,-22.596796056,-10.50674556,3.694757,62060.0455576213,370752.406368909,-15939.2376660099,7110.6772853732,15096.9511380996,710694.591580978,0.107250332107624,6494.41129573018,35.82199,-123.0596,168.9607,139.6173,34.70278,-123.4687,1090571.45920913,94527.4466922982,26813.60788,-6336245.748,84.05637,179.55,6404951.376,41891.04144,61.3884,324.5876,64.79189,-81248.8584668922,3104.25061555702,-108033.869405399,41.68728264,0.20559515904,-7.46727996,-163.5888,172.6797,20451.37672,890.27955,0.9870042,1821.321,3223421.544,98977.2457145129,92038.9541212457,-0.7042607,-0.6489941,-0.2877907,-0.7075093,0.6751214,0.208906,0.05871489,0.3507389,-0.9346308
50,25579.267104,6396465.744,32.34032,31.04505,5.935658,-0.3845269,0.2098908,-53.22343,0.2101758,-16.8513,0.05415751,0.06478626,0.02315645,1723.9146624,1433.2464096,1479.2587128,-2825798.0568,-4370493.672,3718657.536,-709.8398808,-1122.1818552,-539.4728352,-31.30658712,-27.827511528,-14.487153144,4.960376,40685.3451316456,241494.284662487,-15644.6112804003,4616.3819145906,12602.655767317,687187.07481081,0.0372522303707714,2363.5189696774,35.72785,-123.0941,164.1771,189.893,33.67429,-123.8607,2322566.42658363,151507.42246759,49372.85692,-6301987.452,89.49174,179.1259,6427509.624,76149.0984,57.47797,325.3262,60.78337,-50368.1474761338,2498.91304257781,-55804.9418631698,50.52297744,0.19825965936,-4.78906332,-163.1999,179.3753,31327.37636,1637.0983648,0.9765827,1845.4512,3251828.904,50290.2146334345,55861.3008310352,-0.705497,-0.6561845,-0.267761,-0.7082349,0.6666399,0.2323672,0.02602443,0.3535721,-0.9350452
60,34441.60752,6405372,31.69273,30.44602,1.919358,-0.1742189,0.06319071,-58.02704,-0.06044814,-17.24845,-0.113905,-0.06633072,-0.007624251,2318.0728848,1927.9648512,1988.6669904,-2834596.7184,-4383182.496,3712351.224,-1065.5329464,-1423.0246368,-746.1156528,-40.1128992,-32.92986048,-26.35128588,6.421484,18554.9936704165,35613.6765794126,-3232.63185463666,2239.10702497482,10225.3826920707,671114.31564839,0.00936253653615269,642.679000597225,35.60119,-123.1414,158.9828,249.3367,31.97869,-124.5,4064170.42464258,194149.13598455,82890.5196,-6236602.592,93.474,178.4014,6461028.48,141535.16016,54.63483,326.1034,57.86219,-20615.0695612873,377.253497261378,-6256.74397382019,63.60666984,0.036889182,-1.0470376824,-162.9523,-175.7357,45977.27048,2725.682852,0.9571272,1887.708,3301282.704,5562.01182550558,20810.1996988839,-0.7032306,-0.6220242,-0.3443146,-0.7064945,0.6655992,0.2405062,0.07957479,0.4123877,-0.9075264
70,45924.61224,6416914.776,30.39216,29.30316,1.752314,0.1083607,0.2193617,-59.55383,-0.09674803,-17.12846,-0.007379555,-0.3268521,0.009610514,2989.5463704,2526.6658128,2597.8664832,-2847457.4496,-4399233.264,3703448.016,-1485.1666512,-1767.5577552,-1026.6739944,-16.279267416,-11.577041616,-15.960626448,7.965332,6189.41883405134,10845.8027480444,670.689909705901,78.257293692886,8064.5321443225,148629.629850535,0.00182443586332373,139.462266739794,35.42982,-123.2059,153.2186,322.2134,29.29639,-125.478,6122501.13795283,199844.888376754,131429.958,-6123178.704,96.15935,177.2197,6509567.88,254957.15328,52.71253,327.2953,55.88939,-6778.20009733395,-107.588691386144,-1574.55257392941,17.586920376,-0.013339291584,-0.3174357888,-162.838,-172.4504,65811.54228,4274.491932,0.9246193,1957.5906,3382261.968,1366.35889909308,6822.24193954664,-0.6993572,-0.612231,-0.3688803,-0.7079325,0.6645196,0.2392599,0.09864582,0.4284705,-0.8981548
76.36,53889.46296,6424921.872,29.33503,28.26719,1.231698,0.1172058,0.1783667,-61.273,-0.1555678,-17.25211,-0.02649066,-0.2609793,0.001189114,3016.6507104,2518.1116008,2590.519584,-2856892.8384,-4410407.232,3696769.848,-1473.4842768,-1739.351868,-1069.7599128,3.992306976,6.340894608,-5.681298264,7.998837,2280.88003669028,2809.3555223702,267.332339738376,4.48504197589525,7990.7598812657,5563.19950067685,0.000674233000828894,51.0231670600641,35.306,-123.2526,154.1237,318.8614,29.19025,-125.5157,7126275.0044255,120947.917687852,133331.73976,-6118663.528,96.22572,177.2903,6511469.832,259472.82624,52.66498,327.344,55.84052,-2492.26473055164,-31.7178485058639,-427.862115598033,0.3842470344,-0.00396881604,-0.05815465128,-162.8112,-172.3806,80145.37408,5415.749892,0.923357,1960.377,3385471.512,374.139252826318,2500.54242615548,-0.6970724,-0.5981692,-0.3953274,-0.7071883,0.6644905,0.2415307,0.118215,0.4479353,-0.8862162
80,58296.99288,6429356.712,28.70802,27.65082,1.078619,0.2004784,0.201299,-62.10252,-0.1839666,-17.26393,-0.02011539,-0.2569107,-0.000915756,3017.8982568,2501.4582432,2574.4313256,-2862228.6672,-4416698.304,3692837.928,-1458.1211376,-1715.5390632,-1090.0007664,4.327623552,6.635502096,-5.501953944,8.037497,1302.79455510732,1405.21904751287,261.182168352611,1.00852770808251,7987.2853637115,774.305939967849,0.000390117594257067,28.8348900615205,35.23513,-123.2794,154.7859,315.2906,29.18821,-125.5164,7507872.47139102,90147.1662118031,133375.92848,-6118596.856,96.22611,177.3605,6511512.504,259540.58328,52.6647,327.345,55.84018,-1422.02661331942,-33.1019082132306,-218.29958952404,-0.08108591352,-0.004143804768,-0.027970316424,-162.7968,-172.3867,88349.54888,6075.508224,0.9233382,1960.4256,3385526.376,191.465870558845,1425.68794453094,-0.6952527,-0.5916542,-0.4081286,-0.7072913,0.664217,0.2419811,0.1279168,0.4569038,-0.8802705
90,69799.44384,6440926.92,26.93598,25.91144,0.01519244,0.3100934,0.2273763,-65.0212,-0.233622,-17.26331,-0.03070041,-0.2178684,-0.0001106955,3018.263712,2456.0881536,2530.5846264,-2876592.9768,-4433520.216,3681663.96,-1414.8453288,-1649.144784,-1144.9470624,4.303651032,6.618570456,-5.493355536,8.559137,278.353465630729,4.2288673059913,86.3155623136927,0,7986.264780879,125.265212369731,0.0000866926441101471,5.42953997192982,35.04094,-123.3527,156.6261,305.2447,29.19011,-125.5155,8128054.66481277,39945.344743325,133348.98188,-6118695.012,96.22322,177.5566,6511485.072,259442.07192,52.66675,327.3443,55.84223,-300.588887026741,-10.1553477745207,-11.282651682033,-0.02195073588,-0.0012714421104,-0.0015165927504,-162.7584,-172.4083,110829.92124,7904.13228,0.9233659,1960.371,3385462.368,11.2014049142302,300.550543356418,-0.6875716,-0.5678714,-0.4525123,-0.707677,0.6636235,0.2424813,0.1625995,0.4869558,-0.8581582
90.76,70637.30856,6441768.168,26.79865,25.77681,-0.01008658,0.3113993,0.1834974,-65.19362,-0.2756967,-17.28421,-0.09174413,-0.2355708,0.003244378,3018.275904,2452.7832072,2527.3948944,-2877667.092,-4434772.944,3680792.232,-1411.5763488,-1644.1161936,-1149.1212984,4.301121192,6.61656792,-5.492428944,8.583982,245.363248989393,-2.47487648200091,76.4059766335685,0,7986.2284934894,117.721695743491,0.0000766222450745077,4.75796954426127,35.02621,-123.3582,156.766,304.4834,29.19014,-125.5155,8157422.64281301,37396.0770598054,133348.20404,-6118695.012,96.22311,177.5714,6511485.072,259441.3404,52.66682,327.3443,55.84231,-264.710732497886,-9.4495662437138,-7.82302507965603,-0.01840332108,-0.0011830836384,-0.0010771912416,-162.7556,-172.4098,112535.00208,8043.778636,0.9233661,1960.3704,3385462.368,7.86854373144499,264.672967096373,-0.6870951,-0.5663874,-0.4550885,-0.7077959,0.6632357,0.2431939,0.164089,0.4892071,-0.8565928
91.6,71557.40832,6442694.76,26.6464,25.62761,-0.04358521,0.3430837,0.1138321,-65.39378,-0.354287,-17.29803,-0.09248692,-0.2235488,-0.07198812,3019.4054928,2449.2429552,2523.9820488,-2878851.24,-4436150.64,3679822.968,-1408.0290864,-1638.6112008,-1153.7758992,4.146264504,6.490673328,-5.591604768,8.607088,213.866992188761,-9.32143894288743,73.3742943954516,3945.29880706115,5775.2695966273,29593.1465548915,0.0000669614691237273,4.12442753348526,35.00994,-123.3644,156.9195,303.6517,29.18977,-125.5156,8187736.61948588,34815.4653626429,133352.85256,-6118676.492,96.22334,177.5876,6511491.168,259461.3048,52.66667,327.3445,55.84215,-158.913384438424,-2.57733785858782,0.327423851493988,5.095948152,0.009573603408,-0.0003308856984,-162.7524,-172.411,114419.04168,8198.716956,0.9233605,1960.3812,3385474.56,6.8584904974894,230.698028667823,-0.6862685,-0.5649075,-0.4581649,-0.7082611,0.6623746,0.2441847,0.165535,0.4920767,-0.8546688
100,80725.39608,6451921.056,25.39245,24.52117,8.222879,35.40766,4.926688,-59.98514,-9.792714,18.41554,1.666465,0.505474,-0.996735,3199.702008,2585.2270368,2653.7280936,-2890879.2576,-4450171.44,3669615.216,-1442.0761608,-1723.889364,-1277.5054968,-0.329952096,-16.93797984,-14.601379992,9.292397,59.5548546472521,489.712106812028,2108.6978373711,3593.79783255416,5423.6901506403,142083.048652708,0.0000168696114041144,0.987387179495075,34.84202,-123.426,156.6129,315.2219,28.39122,-125.5914,8414567.34082601,20460.3954448208,144909.75852,-6080319.72,95.46066,177.3682,6523046.136,297816.48336,53.20151,327.787,56.37182,-44.2520918555611,-213.994511680358,-38.1738327740532,26.185121112,-0.10913604792,-0.07303538352,-164.2051,-173.3561,133825.57556,9654.237092,0.9126748,1982.097,3410431.584,1.90986129857639,64.2417058719698,-0.174487,-0.9191453,-0.3531659,-0.9587292,0.2403575,-0.1518768,0.224483,0.31209,-0.9231507
110,92060.38992,6463332.768,24.75722,24.13075,1.494263,29.65417,17.79399,-60.23941,2.845584,21.10424,0.1759001,-0.03345139,0.578276,3506.827632,2822.0514552,2871.4061952,-2905352.6856,-4468422.864,3656060.76,-1459.8859296,-1938.6352896,-1440.2781456,-3.8512242,-24.7300242,-18.181140168,10.48147,10.6752341134528,15.9516003488787,316.565216034906,3043.62657513376,4873.4009592037,171717.101053573,0.0000025795369545467,0.139713159296851,34.62544,-123.4914,154.908,343.5633,26.90283,-125.4887,8562898.34278058,10276.4857895145,168092.50188,-6014903.376,93.0835,176.8541,6546229.224,363233.8176,54.85056,328.6406,58.00497,-7.93221112742421,-31.6884635538735,-0.588827553632009,35.22945456,-0.022926403728,-0.07603626144,-167.7541,-176.2599,158578.59268,10302.724152,0.8948591,2020.842,3454731.216,0.342343587131517,11.5153603958353,-0.2376858,-0.897707,-0.370982,-0.8747052,0.363887,-0.3201204,0.4223699,0.2484118,-0.8717197
120,104365.9584,6475719.84,24.35855,23.92045,3.113658,21.13212,14.58915,-60.93016,4.413041,15.4371,-0.2823747,-0.0195393,0.5667654,3906.618552,3162.677952,3195.236688,-2920250.0904,-4489176.696,3640659.216,-1529.711952,-2223.6110976,-1648.6543608,-9.828461928,-31.54277664,-23.160782736,10.95728,1.28249907093073,3.99326339442935,27.101921544038,2407.44467892159,4237.187765118,190239.762752815,0.000000250620885626572,0.0157163598484824,34.38442,-123.5457,152.0249,388.0272,24.61519,-125.4249,8633443.9508779,4475.11088524964,202589.1688,-5910450.576,91.14752,175.9631,6580726.488,467687.2536,56.17542,329.821,59.32068,-0.95295808541291,-2.62004345502729,-0.167871880360478,44.89164504,-0.01690966392,-0.10064273496,-170.9328,-178.6124,185762.8228,9409.971256,0.8672929,2082.1068,3524207.328,0.0411283993977903,1.38342983918597,-0.3214551,-0.8559918,-0.4049008,-0.8570731,0.4448148,-0.2599336,0.4026069,0.2634726,-0.8766356
127.6,114672.34368,6486098.28,24.1756,23.83252,4.147449,14.78862,11.22864,-61.73458,4.33342,10.29768,-0.373217,-0.3091928,0.8475919,4275.926424,3494.309496,3517.434672,-2932222.9392,-4507041.024,3627412.608,-1628.1614376,-2482.9425576,-1842.357504,-15.81634632,-36.15696096,-27.52699092,9.860614,0.291948203323533,1.21084003893299,4.31751138105972,1891.5754372977,3721.31308038567,194376.831266088,0.000000047119714458033,0.00455443439375658,34.18008,-123.5806,148.9614,436.3476,22.09699,-125.4471,8659274.37081663,2622.53545106264,239813.8132,-5794567.232,90.15975,174.9175,6617951.712,583569.7752,56.84472,331.0778,59.99295,-0.216931450001834,-0.39530398023616,-0.0579217170832238,52.22653512,-0.0405603456,-0.15401428176,-172.808,-179.8073,208589.0932,7666.935528,0.8379315,2150.316,3600760.896,0.00936247451270861,0.314924081861809,-0.3850081,-0.8173057,-0.4286959,-0.8465727,0.4977314,-0.1886216,0.3675369,0.2903014,-0.8835393
130,118140.20568,6489591.288,24.13433,23.81322,4.253136,12.80643,10.18221,-62.12873,4.23765,8.524564,-0.3893942,0.0951475,0.368553,4409.562936,3617.6712,3638.531712,-2936181.3768,-4513109.592,3622907.664,-1671.3775056,-2575.51428,-1913.3131152,-18.582829992,-38.96825328,-29.949577896,9.526947,0.198662185027225,0.844937184594909,2.54415442871956,1727.42444092603,3390.13168327757,193601.01693417,0.0000000299659283272448,0.00336413690113651,34.11106,-123.5907,147.7677,455.7526,21.07422,-125.4801,8665182.03599673,2326.5593813651,254746.1188,-5747594.956,89.94902,174.4789,6632883.864,630543.1128,56.98671,331.5852,60.13898,-0.147615479804472,-0.226227966284432,-0.041694195394365,57.09976896,-0.02313433524,-0.16284604464,-173.2877,179.9386,216266.9296,6931.26742,0.8263786,2178.102,3631713.336,0.00637088978868939,0.214296634892467,-0.4056835,-0.8025693,-0.4373824,-0.841903,0.5144131,-0.163029,0.3558374,0.3020954,-0.8843744
140,133942.43976,6505501.848,24.05636,23.78958,4.327613,5.439254,6.16616,-63.58307,3.519677,1.585078,-0.3765093,-0.1460895,0.6576153,5029.55052,4195.407408,4210.812,-2953985.964,-4540907.352,3602175.168,-1905.0728472,-2990.136768,-2243.0390496,-27.68470968,-43.00151928,-35.7566976,8.577322,0.0577619304694745,0.249971388754437,0.314181880383642,1059.78772822384,2722.49451698301,182171.978727001,0.00000000650978077785356,0.00126400149047886,33.79606,-123.63,141.7578,561.0643,15.43943,-125.8107,8684750.46712287,1716.16651394343,337091.0392,-5496717.48,89.58144,171.996,6715228.632,881419.116,57.23321,334.381,60.42114,-0.0429198895157851,-0.0195631852512618,-0.0125899706700932,66.90484968,-0.027113264544,-0.2154641868,-174.6177,179.4974,251171.3884,2971.711792,0.7679452,2329.6938,3798323.112,0.00185236536526618,0.0623077080780869,-0.4846195,-0.741604,-0.4638614,-0.8185565,0.5714475,-0.05842116,0.3083978,0.3513847,-0.8839794
150,152241.62592,6523923.96,24.00593,23.7471,3.587367,-0.9554937,2.688375,-65.25362,2.642286,-5.396187,-0.3807418,-0.1292266,0.5760203,5739.319992,4863.559488,4880.192424,-2974612.9992,-4572996.696,3577846.032,-2234.7756168,-3426.802392,-2630.02014,-36.43698072,-42.82260168,-40.1895564,8.385801,0.0260891487300341,0.0935913507078265,-0.0249280189335797,452.300901804136,2115.00778128178,154327.090024225,0.00000000218966885517562,0.000619884166901867,33.43121,-123.6696,133.9009,722.3309,6.645869,-126.7156,8701081.15249191,1583.34398482611,466148.9556,-5132488.344,90.05181,168.0004,6844287.048,1245648.7152,56.92309,338.741,60.1905,-0.0193854832459537,0.000875619080299184,-0.00413287161617903,72.95793384,-0.03597530016,-0.26855415936,-174.8289,-179.938,291484.9836,-2118.44724,0.6920498,2560.2564,4044967.272,0.000836651769305179,0.0281423234893014,-0.5608533,-0.671551,-0.4842137,-0.7836795,0.6192373,0.04890369,0.2670019,0.4068961,-0.873582
160,173205.648,6545031.36,23.90007,23.6285,1.549984,-6.875191,-0.374374,-67.87234,1.792912,-12.70926,-0.1842914,-1.515512,2.008419,6383.09112,5462.74752,5484.67788,-2998815.948,-4609240.464,3549566.688,-2573.7290664,-3774.615768,-2994.9669336,-11.554123704,-8.889802896,-17.562313872,8.461793,0.0140318988213729,0.0217492150236939,-0.0964719707288605,16.685304611976,1679.39218408962,29773.953418887,0.000000000931979617074334,0.00033963967044271,33.01334,-123.7169,125.6872,926.3466,-4.468974,-128.2763,8716702.05494332,1493.3242047741,633696.062,-4721051.728,90.9528,162.9126,7011832.56,1657084.5192,56.33649,344.2399,59.71316,-0.0104263690210953,0.0069405735309558,-0.000805665012711112,17.726701656,0.03313163808,-0.03522216984,-174.2912,-178.8659,337698.8656,-7737.9801,0.6176952,2839.9668,4334457.168,0.000449988326110014,0.0151361861013277,-0.6349074,-0.5823712,-0.5076774,-0.7335405,0.6606626,0.1595096,0.2425097,0.4736758,-0.8466524
165.6,185472.50688,6557381.856,23.65253,23.38075,0.9397453,-9.715957,-2.361207,-68.76086,0.8387059,-16.26834,-0.3749141,-0.3005211,0.6524754,6407.526936,5464.65252,5487.11628,-3013227.5016,-4630332.624,3532665.528,-2565.0593352,-3751.140072,-3035.1033024,3.96325344,6.298838304,-5.231254968,8.131527,0.00944015804502918,0.00887134535636869,-0.091720190186875,2.47108278124785,1665.17795999093,612.075739082006,0.000000000626152280103356,0.000252515985117947,32.76725,-123.7463,126.0367,929.6964,-4.93703,-128.3575,8724302.97825173,1226.64570261137,640690.6956,-4704394.84,91.00208,162.9265,7018827.72,1673741.5344,56.30474,344.4706,59.68647,-0.00701448962953659,0.00758170460880653,-0.000311613982229029,0.3675183912,-0.0005219096496,-0.0018346168032,-174.2254,-178.8105,364947.3416,-10884.5281,0.6149029,2851.5972,4346283.408,0.000302736043600428,0.0101830868845135,-0.66882,-0.5411305,-0.5097623,-0.7088838,0.6707881,0.2180069,0.2239723,0.5071696,-0.8322352
170,195002.07888,6566976.96,23.45273,23.18155,0.3612538,-12.17227,-3.901364,-69.45496,0.1668435,-19.23519,-0.394631,-0.1140119,0.4961023,6408.615072,5449.467384,5472.12012,-3024474.3168,-4646776.584,3519260.424,-2547.0730872,-3722.936928,-3057.589008,4.118966616,6.436815168,-5.067598704,7.915618,0.00712749844404588,0.00257483561987157,-0.086757832265894,1.83770771462124,1664.54474504241,304.762608886124,0.00000000047513984407892,0.000204329723402468,32.57434,-123.7694,126.5757,925.7114,-4.959061,-128.3616,8729320.29173994,1060.10859847146,641008.1284,-4703587.368,91.00488,163.1078,7019144.712,1674549.2544,56.30296,344.4814,59.68495,-0.00529607044801561,0.00762561745259238,-0.000090443421510068,0.18305833848,0.0000090330528,-0.0014989213608,-174.2023,-178.8098,386310.9024,-13333.22398,0.6147669,2852.151,4346847.288,0.000228571378395783,0.00768842189357825,-0.6970926,-0.5052401,-0.5087184,-0.6850991,0.6786104,0.2648151,0.2114264,0.5331232,-0.8191938
175.6,206981.02368,6579037.896,23.19671,22.92634,0.1122836,-14.71906,-5.952916,-69.6863,-0.9848137,-22.48929,-0.3927908,0.07280187,0.4010332,6409.438032,5429.853504,5452.747032,-3038672.8152,-4667524.32,3502060.56,-2523.8442792,-3686.757168,-3085.664136,4.167640128,6.471477024,-4.976265384,7.700728,0.0051678169002915,0.00058026085858269,-0.0760653564711824,1.35477200061357,1664.05622605992,191.033369971194,0.000000000346731407650391,0.000159477890802638,32.32957,-123.7988,127.2701,920.4255,-4.975937,-128.365,8734779.37411609,896.444241321076,641244.0732,-4702953.984,91.00733,163.3434,7019382.456,1675183.2384,56.30141,344.4897,59.68362,-0.00383993309206173,0.00695828634942777,-0.0000203821873668419,0.11478307752,0.000008982644976,0.000012106939464,-174.1739,-178.8101,413418.8116,-16421.900684,0.6146596,2852.5794,4347283.152,0.000165726414111005,0.00557451577646607,-0.7272885,-0.4714089,-0.4988238,-0.6599139,0.6800178,0.3195144,0.1885871,0.5615599,-0.8056584
180,216275.16816,6588395.256,22.99427,22.72458,0.8725753,-15.65744,-6.95641,-69.00894,-1.709853,-23.83815,-0.2068546,0.2120757,0.1381795,6409.855608,5414.42148,5437.497888,-3049737.36,-4683684.816,3488436,-2505.4486848,-3658.24008,-3107.40552,4.189808232,6.487716768,-4.916984832,7.566139,0.00410152161758907,0.00357888656589957,-0.0642193494771165,1.11007116399256,1663.78724578451,124.487974606897,0.000000000276572270647943,0.000133001591874541,32.13786,-123.8218,127.819,916.1863,-4.984668,-128.3668,8738492.95834117,794.331350266231,641362.7864,-4702618.772,91.00864,163.5301,7019501.328,1675518.5184,56.30058,344.494,59.68291,-0.0030476265336834,0.00594053769207778,-0.000125711591408822,0.07481081304,0.000007167207408,0.000008246364,-174.1523,-178.811,434653.8436,-18825.91336,0.6146026,2852.8026,4347508.704,0.000131531511123581,0.00442430530692389,-0.7408001,-0.4658697,-0.4839222,-0.6506054,0.6768519,0.3443606,0.1671164,0.5699447,-0.8045092
190,237012.23616,6609277.104,22.52992,22.2619,4.589945,-15.98656,-6.833704,-66.16586,-1.819448,-24.40871,-0.02405349,0.1843092,-0.004423608,6410.364624,5379.585888,5403.06768,-3074581.608,-4719940.776,3457117.8,-2463.3731784,-3593.296344,-3155.941872,4.214810976,6.49664436,-4.808040168,7.337227,0.0025633438789137,0.011765611251212,-0.0409790570043087,0.81169719582182,1663.45657694678,60.9539807939146,0.000000000174794333909781,0.0000911557298137558,31.70408,-123.8742,129.073,906.3901,-4.995953,-128.369,8745511.29183079,620.456794236928,641508.9092,-4702168.736,91.01034,163.9566,7019644.584,1675968.0984,56.29953,344.4995,59.68203,-0.00190468712719352,0.003804301502457,-0.000631741771665234,0.03663720384,0.000004267007976,0.000003893631024,-174.1049,-178.8145,482705.4652,-24218.604,0.6145256,2853.096,4347807.408,0.0000822037582010402,0.00276507549668206,-0.7535357,-0.4877546,-0.4407713,-0.6450905,0.677776,0.3528142,0.1266574,0.5501955,-0.8253744
200,257213.7096,6629622.504,22.05966,21.79344,6.145255,-15.73621,-6.684767,-65.51514,-2.101422,-24.41767,-0.02681487,0.02266909,-0.01624539,6410.648088,5345.442192,5369.323272,-3099005.232,-4755550.56,3425318.016,-2421.1891632,-3528.358704,-3203.481528,4.219873704,6.49099032,-4.711897104,7.179511,0.00169552280334173,0.0104194194657727,-0.0266811019478598,0.64474889530436,1663.26561455901,38.1968834584635,0.000000000116850757198771,0.0000648258008373614,31.27294,-123.9263,130.3302,896.5104,-5.002856,-128.3703,8751073.71859975,498.892444280765,641590.7676,-4701876.12,91.0113,164.3828,7019726.88,1676260.7064,56.29894,344.5028,59.68156,-0.00125985468413674,0.0024702553748215,-0.000704248228816142,0.022961346,0.0000027751881504,0.000002299263372,-174.0589,-178.8188,530472.2492,-29515.8796,0.614475,2853.2802,4347993.336,0.0000543736375940275,0.00182895793348236,-0.753699,-0.4952517,-0.4320457,-0.6470518,0.674356,0.355764,0.1151599,0.5476949,-0.828715
210,276881.29536,6649431.456,21.58355,21.31927,7.273882,-15.36573,-6.211369,-65.39426,-2.116783,-24.20239,0.1540527,0.003771182,-0.02253475,6410.84316,5312.112312,5336.386584,-3123005.184,-4790508.072,3393051.888,-2378.9889936,-3463.485072,-3250.109832,4.219425648,6.483845808,-4.62349596,7.066494,0.00116967785909019,0.00850810177161437,-0.0179729564542256,0.53100652619553,1663.14133024963,27.994882735642,0.0000000000814104750625534,0.0000474324397061187,30.84437,-123.9783,131.5888,886.5958,-5.007946,-128.3712,8755597.02317728,409.996960370297,641645.5868,-4701646.472,91.01194,164.8072,7019781.744,1676489.6112,56.29856,344.5052,59.68128,-0.000869126900851711,0.00165707642615789,-0.000629200057834275,0.016829894712,0.0000019580211792,0.0000016319074296,-174.0138,-178.8233,577963.2704,-34719.8144,0.6144349,2853.4194,4348136.592,0.0000375103493825858,0.00126173005436973,-0.7516705,-0.4988572,-0.4314312,-0.6495554,0.6733224,0.3531499,0.1143209,0.5456908,-0.830152
220,296016.76128,6668703.96,21.10162,20.83941,8.466228,-14.73549,-4.266027,-65.60884,-0.8246441,-23.33228,0.1538683,-0.003092995,-0.02839683,6410.992512,5279.632824,5304.300288,-3146584.512,-4824819.408,3360319.416,-2336.8022352,-3398.68764,-3295.875552,4.217938224,6.476106936,-4.53777096,6.982202,0.000834076026647809,0.00706147635493789,-0.0122905177423876,0.444073960911735,1663.04879740615,21.3225458645296,0.000000000058588109461293,0.0000355278081229572,30.41827,-124.0302,132.8481,876.6623,-5.012066,-128.3719,8759345.81263508,342.816177563648,641685.2196,-4701450.16,91.01243,165.2297,7019821.368,1676686.512,56.29827,344.5071,59.68109,-0.000619758262633723,0.00112454378599997,-0.000556673583686098,0.012819375936,0.0000014167427088,0.0000012037368864,-173.9696,-178.8279,625187.6036,-39833.35308,0.6144001,2853.5364,4348255.464,0.0000267479483560089,0.000899716431255534,-0.748354,-0.5000867,-0.4357517,-0.6495699,0.6855056,0.328848,0.1342578,0.5291459,-0.8378421
230,314621.8752,6687446.112,20.61395,20.35394,9.73901,-14.0064,-2.363849,-65.69676,0.4482626,-22.41623,0.153502,-0.02268329,-0.03298746,6411.10224,5248.006776,5273.064384,-3169740.168,-4858481.52,3327135.84,-2294.63346,-3333.969456,-3340.793928,4.215557736,6.46806936,-4.454426448,6.918114,0.000615853127898312,0.00599779724958614,-0.0086258824206801,0.3786316949338,1662.97803699643,17.0945156674461,0.0000000000436248791526269,0.0000273075481042549,29.99455,-124.0819,134.1081,866.7132,-5.015403,-128.3724,8762507.46966341,291.923947412051,641712.8144,-4701277.924,91.01278,165.6502,7019848.8,1676858.1144,56.29807,344.5086,59.68098,-0.000457608129736955,0.000781561879066662,-0.000496153749321833,0.010277889528,0.0000010677994392,0.0000009388028976,-173.9261,-178.8324,672154.5088,-44858.5884,0.6143695,2853.6342,4348353,0.0000197497614586922,0.000664319657131079,-0.744628,-0.5030532,-0.4387102,-0.6497555,0.696753,0.3038963,0.1527967,0.511344,-0.8456834
240,332698.6488,6705657.912,20.12065,19.86298,11.00777,-13.19232,-0.5077288,-65.73724,1.706294,-21.46535,0.1539938,0.0104618,-0.03709511,6411.199776,5217.255504,5242.700208,-3192478.248,-4891497.456,3293507.256,-2252.4966888,-3269.333568,-3384.889344,4.212134832,6.460034832,-4.373462424,6.86615,0.000459932979739208,0.00506283464445122,-0.00606758272704998,0.320979560395956,1662.92043076544,15.6117721635449,0.0000000000328329549250252,0.000021163423995199,29.57314,-124.1335,135.3683,856.7576,-5.018402,-128.3728,8765210.32301378,250.189052550667,641735.2236,-4701118.652,91.01309,166.0685,7019873.184,1677018.744,56.29789,344.51,59.6809,-0.000341752196067768,0.000543025994948318,-0.000433911474583707,0.009386779296,0.000000873857028,0.0000008701345056,-173.8835,-178.8369,718873.246,-49798.35392,0.6143406,2853.7242,4348444.44,0.0000147495689196373,0.000496128839280788,-0.7405015,-0.506821,-0.4413503,-0.6499373,0.707153,0.2784172,0.1709945,0.4930184,-0.8530497
250,350249.0328,6723342.408,19.62176,19.36657,12.35201,-12.29382,1.296878,-65.64765,2.947138,-20.47358,0.1530535,-0.04562251,-0.04115058,6411.291216,5187.379008,5213.204712,-3214792.656,-4923870.264,3259439.76,-2210.391312,-3204.77388,-3428.189232,4.20945564,6.453189024,-4.295476296,6.824159,0.000350053339489379,0.00432386126100569,-0.00430349252003287,0.268558933457507,1662.86010298023,14.1290331078652,0.0000000000251638707255016,0.0000166389310425932,29.15395,-124.185,136.6287,846.7964,-5.021137,-128.3732,8767540.68228897,216.637330120695,641752.8176,-4700963.084,91.01337,166.4848,7019888.424,1677173.2776,56.29774,344.5112,59.68083,-0.00026010637830393,0.000379138342206413,-0.000381350353851249,0.008495602008,0.00000072454008,0.000000795416748,-173.8417,-178.8414,765353.0752,-54654.68684,0.6143127,2853.8088,4348532.832,0.0000112258434437845,0.000377602015424934,-0.7362041,-0.5121124,-0.4424302,-0.6501754,0.7166426,0.2523792,0.1878178,0.4734598,-0.8605581
260,367274.5512,6740499.6,19.11743,18.86485,13.15971,-11.47778,2.37677,-65.9239,3.556703,-19.72318,-0.02714355,-0.0188156,-0.0460305,6411.370464,5158.371192,5184.577896,-3236686.44,-4955593.848,3224945.544,-2168.3155008,-3140.29344,-3470.699688,4.206328392,6.444852744,-4.216002744,6.790095,0.000272665099342829,0.00358819305183758,-0.00312959018569284,0.221369678040742,1662.81020781953,12.6462940521856,0.0000000000197226712359163,0.0000133211355289134,28.7369,-124.2364,137.8892,836.8309,-5.02363,-128.3736,8769571.22925976,189.926665798831,641767.4484,-4700816.776,91.0136,166.899,7019903.664,1677319.2768,56.29761,344.5123,59.68079,-0.000202603194392486,0.000271156205618399,-0.000320960096182637,0.007604293656,0.0000006085770912,0.0000007251719304,-173.8006,-178.8457,811602.7008,-59429.55028,0.6142862,2853.888,4348612.08,0.0000087440827437551,0.000294123441391176,-0.7301937,-0.5149314,-0.4490688,-0.6527856,0.7198326,0.236034,0.201713,0.4654962,-0.861757
270,383776.728,6757129.488,18.60771,18.35788,13.99557,-10.89195,2.292176,-65.96561,3.11633,-19.3971,-0.02678799,0.006169012,-0.04922144,6411.443616,5130.229008,5156.810616,-3258159.6,-4986674.304,3190030.704,-2126.2652928,-3075.880056,-3512.435952,4.203947904,6.438601296,-4.13950404,6.761776,0.000215640476981393,0.00301801098777025,-0.00234874503696642,0.179411884864135,1662.76847732149,11.1635505482844,0.0000000000156839515096717,0.0000107933786524868,28.3219,-124.2876,139.1499,826.8605,-5.02588,-128.3738,8771358.74655954,167.90681482306,641778.5604,-4700677.876,91.01381,167.3114,7019915.856,1677458.2656,56.2975,344.5132,59.68077,-0.000160231214574161,0.000200727868641708,-0.000273409719170906,0.006712893864,0.0000005149385688,0.0000006469742712,-173.7603,-178.8499,857631.0124,-64124.87032,0.614261,2853.9618,4348685.232,0.00000691536545906212,0.000232611075337898,-0.7245203,-0.520399,-0.451946,-0.6597811,0.7133268,0.2363341,0.1993971,0.4694143,-0.8601692
280,399758.0016,6773238.168,18.09269,17.84575,15.07044,-10.31116,2.17871,-65.77398,2.666465,-19.04349,-0.02648681,0.02807798,-0.05192406,6411.504576,5102.952456,5129.908968,-3279209.088,-5017111.632,3154698.288,-2084.23764,-3011.5309848,-3553.416312,4.201863072,6.432352896,-4.064197104,6.737968,0.000172819102524142,0.00260445961490529,-0.00178196582290483,0.142685508568449,1662.73173633952,9.68081149260473,0.0000000000126308164667813,0.00000883838458608662,27.90888,-124.3387,140.4109,816.8856,-5.027894,-128.3741,8772942.98203171,149.529115519546,641786.1536,-4700546.384,91.01398,167.7218,7019921.952,1677589.9392,56.2974,344.5141,59.68076,-0.000128412862949122,0.000149967610430189,-0.000239289857682131,0.005821423968,0.0000004328729976,0.0000005604695928,-173.7209,-178.8541,903446.1588,-68743.88796,0.6142369,2854.0302,4348755.336,0.00000554212827488536,0.000186419674511845,-0.7192556,-0.5280977,-0.4514246,-0.6670732,0.7065102,0.2363401,0.1941255,0.4711222,-0.8604413
290,415219.2864,6788825.64,17.57245,17.32854,16.149,-9.744593,2.031419,-65.58357,2.204406,-18.66925,-0.02715214,-0.01025086,-0.05426988,6411.55944,5076.541536,5103.863808,-3299844.048,-5046905.832,3118963.536,-2042.2291896,-2947.2395208,-3593.65296,4.200226296,6.426994512,-3.991273704,6.717716,0.000140220067598675,0.00226441353682436,-0.00136638767867723,0.11104485528444,1662.69454176518,8.37266513532408,0.0000000000102926509972833,0.0000073103052728328,27.49777,-124.3897,141.672,806.9061,-5.029677,-128.3743,8774359.14090898,134.065500962692,641790.4132,-4700422.3,91.01413,168.1305,7019928.048,1677714.9072,56.29733,344.5148,59.68077,-0.000104190205589869,0.000113051463387413,-0.000210576453708976,0.005034902808,0.000000364993428,0.0000004831275072,-173.6823,-178.8582,949056.6592,-73288.39964,0.6142139,2854.0938,4348822.392,0.00000449671167908845,0.000151255192658943,-0.7136214,-0.5360501,-0.4509932,-0.6746057,0.6993791,0.2361694,0.1888166,0.4727781,-0.8607143
300,430162.1064,6803891.904,17.04712,16.8064,17.03681,-9.196464,1.848858,-65.58812,1.729562,-18.27664,-0.02692092,0.006263,-0.05637034,6411.60516,5050.990152,5078.675136,-3320055.336,-5076056.904,3082829.496,-2000.2384176,-2883.0029208,-3633.158088,4.198440168,6.421337424,-3.918048552,6.700215,0.000115072158575728,0.00196046247077834,-0.00105825714482482,0.08350590172463,1662.66732622298,7.26060973150895,0.00000000000847957923690509,0.00000610358389377729,27.08848,-124.4406,142.9332,796.9232,-5.031274,-128.3745,8775632.20755006,120.943715772979,641792.6356,-4700303.772,91.01425,168.5375,7019931.096,1677833.1696,56.29726,344.5154,59.6808,-0.0000855041162284827,0.0000859262969419871,-0.000183905183797171,0.00436624476,0.0000003096941736,0.0000004185979944,-173.6445,-178.8622,994470.6624,-77759.29432,0.614192,2854.1532,4348880.304,0.00000369024376237579,0.000124128157960438,-0.7070073,-0.5426219,-0.453544,-0.6823519,0.6919306,0.2358559,0.1858404,0.4762285,-0.859459
310,444588.5952,6818440.008,16.51678,16.27938,17.74944,-8.66987,1.632678,-65.77174,1.243839,-17.86723,-0.02763613,-0.03671439,-0.05827932,6411.647832,5026.298304,5054.342952,-3339846,-5104564.848,3046302.8736,-1958.2619712,-2818.8138696,-3671.943888,4.197102096,6.416872104,-3.846612576,6.684732,0.0000954221481704576,0.00169369042583055,-0.000827297618383963,0.059884852260695,1662.6382963113,6.14855432769383,0.00000000000705670077993242,0.00000514095607500354,26.68095,-124.4914,144.1947,786.9365,-5.032684,-128.3746,8776783.75935564,109.713110258605,641792.2652,-4700190.8,91.01435,168.9428,7019928.048,1677946.2504,56.29721,344.5158,59.68084,-0.0000709032291163355,0.0000657963593265034,-0.000159885943612384,0.003697562328,0.00000025846009776,0.0000003523451424,-173.6075,-178.8662,1039695.9468,-82160.53528,0.614171,2854.209,4348938.216,0.00000306008911618288,0.000102931759212696,-0.6995152,-0.5478797,-0.4588096,-0.6902717,0.6841874,0.2353987,0.1849416,0.4813682,-0.8567854
320,458499.3624,6832473,15.98156,15.74763,18.3513,-8.16225,1.387814,-66.06998,0.7512124,-17.43963,-0.02745674,-0.02480458,-0.05991874,6411.68136,5002.465992,5030.864208,-3359219.088,-5132432.712,3009392.2032,-1916.2968024,-2754.6687096,-3710.0256,4.19605968,6.412705488,-3.77636532,6.670692,0.0000798741353125501,0.00146579475716185,-0.000651952927959126,0.0401817250363298,1662.61833824702,5.0364989238787,0.00000000000592669149029987,0.00000436527193939261,26.27509,-124.5421,145.4562,776.9468,-5.033923,-128.3747,8777831.96676841,100.017055412166,641790.0428,-4700083.384,91.01443,169.3465,7019928.048,1678052.9304,56.29718,344.5162,59.68089,-0.0000593503079371809,0.0000506723168701853,-0.000139054966270335,0.003028840272,0.00000021009397656,0.00000028404500976,-173.5714,-178.8701,1084740.6612,-86492.1966,0.6141511,2854.26,4348990.032,0.00000256148039335158,0.0000861601399523013,-0.6913618,-0.552315,-0.4657972,-0.6983388,0.676182,0.2347358,0.1853155,0.4875716,-0.8531894
330,471896.5416,6845987.832,15.44157,15.21126,19.06092,-7.67653,1.118526,-66.2642,0.2559552,-16.99593,-0.02731574,-0.01520219,-0.06121073,6411.708792,4979.493216,5008.235856,-3378174.6,-5159660.496,2972104.4952,-1874.3395584,-2690.5613448,-3747.40932,4.195315968,6.409133232,-3.707309832,6.657537,0.0000675151392237689,0.00128690022433621,-0.000518281778543004,0.0243964883000685,1662.60291610644,3.92444396488574,0.00000000000502598248303154,0.00000373855669594201,25.87086,-124.5927,146.7179,766.9539,-5.034988,-128.3748,8778790.45762039,91.6329860237456,641785.9684,-4699983.376,91.01448,169.7487,7019921.952,1678153.8192,56.29715,344.5165,59.68096,-0.0000501669544124756,0.0000392703772290959,-0.00012274178072961,0.0023600947464,0.00000016382509272,0.00000021289917288,-173.5362,-178.8738,1129611.8432,-90757.20444,0.6141322,2854.308,4349038.8,0.00000216513939921026,0.0000728284639136364,-0.6832937,-0.5577283,-0.4712206,-0.7064912,0.6679701,0.2338505,0.1843362,0.4927018,-0.8504499
340,484781.0472,6858990.6,14.89692,14.67037,19.85367,-7.218051,0.8249188,-66.37778,-0.2415138,-16.54016,-0.02721203,-0.00790776,-0.06216542,6411.72708,4957.37388,4986.460944,-3396706.44,-5186245.152,2934446.4552,-1832.3868864,-2626.4856792,-3784.110288,4.195166616,6.40645404,-3.639443064,6.644471,0.0000577293240131089,0.00114613896617028,-0.000416693131818469,0.0125291556596822,1662.59066911245,2.81238856107061,0.00000000000431199831393998,0.00000323539981240831,25.46815,-124.6432,147.9798,756.9579,-5.035888,-128.3748,8779670.58843826,84.4262363999445,641780.042,-4699888.924,91.01451,170.1494,7019915.856,1678248.9168,56.29713,344.5168,59.68103,-0.0000428956378115387,0.0000307040543175299,-0.000109921338801187,0.0016913312376,0.00000011912059488,0.00000013952476032,-173.5018,-178.8776,1174317.8268,-94957.17004,0.6141143,2854.3518,4349081.472,0.00000185131869872011,0.0000622725226451101,-0.6752757,-0.5638971,-0.4754186,-0.7146805,0.6595752,0.2327925,0.1823033,0.4969715,-0.8484013
350,497154.0984,6871478.256,14.34773,14.12509,20.70552,-6.784384,0.5093973,-66.43398,-0.7406967,-16.07607,-0.02714443,-0.002921963,-0.0627928,6411.74232,4936.111032,4965.533376,-3414820.704,-5212189.728,2896424.484,-1790.4357384,-2562.436836,-3820.137648,4.195166616,6.403777896,-3.572768064,6.630911,0.0000497147911031674,0.0010293700269768,-0.000337284153221913,0.0045797225792472,1662.58295804216,1.70033360207765,0.0000000000037268134961107,0.00000281905510523444,25.06693,-124.6936,149.2418,746.9589,-5.036624,-128.3749,8780482.58009604,78.0430620911385,641772.634,-4699800.028,91.01453,170.5488,7019909.76,1678337.9184,56.29713,344.5169,59.68111,-0.0000369404565739035,0.000024100064371536,-0.0000992601081270273,0.001022555232,0.00000007545573936,0.00000006472415808,-173.4684,-178.8812,1218865.6496,-99093.42684,0.6140975,2854.392,4349124.144,0.00000159430089861252,0.0000536272704892029,-0.6672691,-0.5705916,-0.4787245,-0.7228618,0.6510213,0.2316074,0.1795067,0.5005961,-0.8468653
360,509016.9144,6883453.848,13.79347,13.57487,13.35092,-8.971091,0.900554,-74.7585,-0.4343576,-18.17809,-0.06184374,-2.032688,0.5007654,6411.748416,4915.719912,4945.47144,-3432517.392,-5237494.224,2858045.592,-1748.483676,-2498.3660472,-3855.549312,4.19546532,6.401991768,-3.506687424,6.616718,0.0000430787883055806,0.000575141501292512,-0.000386463738790198,0.00054819722342616,1662.34164690132,0.588278198262524,0.00000000000324193582694765,0.00000247108436548967,24.66711,-124.7439,150.5052,736.9452,-5.036984,-128.375,8781233.24650973,72.3448680456977,641752.4472,-4699688.908,91.01479,170.947,7019888.424,1678447.6464,56.29701,344.5166,59.68112,-0.0000320095984651656,0.0000311132818096906,-0.0000516035520653401,0.0003538215936,0.000000039845742,0.000000012047186472,-173.4355,-178.8845,1263262.3492,-103168.91952,0.6140762,2854.4358,4349169.864,0.0000013814917490282,0.0000464690143370611,-0.660336,-0.4676478,-0.5875899,-0.7002622,0.6660829,0.2568391,0.2712734,0.5810671,-0.7673146
370,520370.4096,6894917.376,13.2356,13.0212,-6.12025,-15.09895,0.7916201,-95.07269,-0.6189092,-24.22959,-0.06908458,-2.038528,0.7407554,6411.748416,4896.160896,4926.23856,-3449790.408,-5262158.64,2819316.18,-1706.5306992,-2434.3485984,-3890.256888,4.19487096,6.401693064,-3.441502896,6.601852,0.0000375291550680763,-0.000229687826762338,-0.000566650894967529,0,1662.31851369045,0,0.00000000000283606830753837,0.00000217751852761648,24.26863,-124.7941,151.7675,726.9402,-5.037383,-128.375,8781930.53724802,67.2230063728533,641742.4464,-4699612.976,91.01485,171.3438,7019879.28,1678523.2368,56.29698,344.5165,59.68118,-0.0000278859546847275,0.0000520800455647668,0.0000154861099029137,-0.000000016773226296,0.00000003132582,0.000000009314797728,-173.4038,-178.8879,1307515.5188,-107184.963,0.6140617,2854.4682,4349200.344,0.00000120352062631243,0.000040482637721238,-0.5952714,-0.1644742,-0.7865114,-0.6381335,0.6915982,0.3383455,0.4883007,0.7033066,-0.5166451
380,531216.108,6905874.936,12.6738,12.46373,-26.62365,-25.39139,-2.50329,-114.9073,-3.834576,-34.48427,0.9267719,-1.516274,1.241183,6411.748416,4877.464464,4907.85912,-3466645.848,-5286179.928,2780242.6488,-1664.5877808,-2370.3506568,-3924.31524,4.191893064,6.380558232,-3.379887576,6.586,0.0000329923568889125,-0.000878376757466775,-0.000837721629566572,0,1662.15431325251,0,0.00000000000250453232896948,0.00000193562267122193,23.87142,-124.8443,153.0295,716.9386,-5.03787,-128.3751,8782580.13057425,62.723084883761,641735.2236,-4699540.748,91.01502,171.7393,7019873.184,1678596.084,56.29691,344.5165,59.68119,-0.000024514896622932,0.0000826614802052505,0.0000870766070516934,-0.000000014747013432,0.00000004972528536,0.00000005238122112,-173.3728,-178.8911,1351631.8256,-111142.05732,0.6140479,2854.5006,4349233.872,0.0000010580304178313,0.000035588802161004,-0.499221,0.2167557,-0.8389251,-0.5383744,0.6810339,0.4963325,0.6789193,0.6994354,-0.2232907
390,541555.5336,6916320.432,12.10829,11.9027,-25.50849,-33.20864,4.518251,-117.9071,1.764251,-42.22568,0.3180513,-0.104473,0.0388718,6411.748416,4859.667192,4890.3636,-3483083.712,-5309564.184,2740831.704,-1622.6274888,-2306.415504,-3957.763992,4.197547104,6.397227744,-3.315891768,6.569065,0.000029246722533088,-0.000746039552065845,-0.000971243871377265,0,1661.91300211167,0,0.00000000000223112438119071,0.00000173468071554362,23.47543,-124.8944,154.2907,706.9496,-5.039012,-128.375,8783186.56909908,58.7443598302228,641735.2236,-4699440.74,91.01476,172.1331,7019873.184,1678696.3632,56.29702,344.5168,59.68138,-0.0000217317110815877,0.0000981058391000834,0.0000736488049439227,-0.000000013074679464,0.00000005902445904,0.00000004431011712,-173.3432,-178.8947,1395618.6776,-115043.79536,0.6140292,2854.5498,4349285.688,0.00000093791153097713,0.0000315483935034306,-0.4955946,0.3077026,-0.8122224,-0.3921358,0.7551417,0.525348,0.7749939,0.5788611,-0.2535829
400,551389.296,6926259.96,11.53858,11.33762,-23.74963,-34.09733,6.937129,-118.2992,3.170443,-43.18544,0.007794437,-0.005568001,-0.0421068,6411.748416,4842.686784,4873.684944,-3499097.904,-5332308.36,2701089.4416,-1580.6464704,-2242.431888,-3990.575712,4.199482584,6.397526448,-3.254276448,6.551782,0.0000260023944887876,-0.000617547131461037,-0.000886612162011393,0,1661.89213686265,0,0.00000000000199368729804169,0.0000015593867781933,23.08058,-124.9444,155.5531,696.9441,-5.039361,-128.375,8783755.53108586,55.0899317526223,641725.9636,-4699364.808,91.01473,172.5263,7019864.04,1678771.6488,56.29703,344.5167,59.68149,-0.0000193210196183054,0.000089732506731517,0.0000605122723875193,-0.000000011624453256,0.0000000539873952,0.00000003640707984,-173.3143,-178.898,1439482.3716,-118891.3624,0.6140149,2854.5828,4349316.168,0.000000833869406684833,0.0000280487418029595,-0.4920226,0.3136147,-0.8121327,-0.3674553,0.7708824,0.5203046,0.789234,0.5544241,-0.2640522
410,560718.0048,6935696.568,10.96519,10.76898,-22.50847,-33.72903,7.89094,-118.336,3.438745,-42.8513,0.007795713,-0.005630413,-0.04208051,6411.748416,4826.565912,4857.853632,-3514694.52,-5354412.456,2661022.2624,-1538.6489928,-2178.4415664,-4022.771736,4.200525,6.399312576,-3.192066768,6.533737,0.0000233140663758446,-0.000524763808003762,-0.000786360475758366,0,1661.89213686265,0,0.00000000000179713263966171,0.00000141329788361063,22.68682,-124.9943,156.8155,686.9368,-5.039613,-128.3749,8784290.42349259,51.8659387493315,641716.148,-4699292.58,91.01472,172.9185,7019851.848,1678843.8864,56.29704,344.5165,59.68159,-0.0000173234656339836,0.0000795227705513065,0.000051113535972203,-0.000000010422629904,0.00000004784473032,0.00000003075236928,-173.2863,-178.9012,1483229.9452,-122685.14736,0.6140011,2854.6128,4349349.696,0.000000747657533915146,0.0000251488438228741,-0.4885419,0.3084813,-0.81619,-0.3699828,0.7739211,0.513964,0.7902149,0.5530692,-0.2639601
413.04,563454.1944,6938464.152,10.79017,10.59544,-22.13366,-33.61173,8.177316,-118.3469,3.520327,-42.74977,0.007796103,-0.005648963,-0.04207296,6411.748416,4821.835416,4853.211528,-3519354.912,-5361005.28,2648778.4464,-1525.8784824,-2158.9874016,-4032.436944,4.199775192,6.398242728,-3.169362216,6.52845,0.0000225308746156256,-0.00049869061297602,-0.00075730146778061,0,1661.89213686265,0,0.00000000000173948494193034,0.00000137045127625689,22.56732,-125.0095,157.1994,683.8944,-5.039682,-128.3749,8784447.1435608,50.9015197904235,641713.1848,-4699272.208,91.01471,173.0375,7019848.8,1678865.5272,56.29704,344.5165,59.68161,-0.0000167415181447239,0.0000765643473194291,0.0000484793880960781,-0.000000010072500048,0.00000004606478976,0.000000029167534248,-173.278,-178.9021,1496507.3036,-123828.64624,0.6139969,2854.6224,4349358.84,0.000000722541540208901,0.0000243040197808173,-0.4874785,0.3069178,-0.8174143,-0.3707455,0.7748367,0.5120312,0.7905141,0.5526568,-0.2639278
420,569543.184,6944624.16,10.38829,10.19697,-21.28242,-33.33551,8.824952,-118.3717,3.707156,-42.51741,0.007794601,-0.005675505,-0.04206952,6411.748416,4811.301528,4842.872712,-3529870.512,-5375876.472,2620636.2624,-1496.6332272,-2114.4430152,-4054.35816,4.202609832,6.400354992,-3.131640168,6.51527,0.0000210428184108534,-0.000447842160980976,-0.000701473085809539,0,1175.65018807005,0,0.00000000000163101573891722,0.00000128921906527862,22.29408,-125.0442,158.078,676.9288,-5.039827,-128.3749,8784793.51762461,48.9839361905494,641706.3324,-4699222.204,91.0147,173.3097,7019842.704,1678914.6,56.29705,344.5163,59.68169,0,0,0,0,0,0,-173.2592,-178.9043,1526868.0656,-126428.632,0.6139875,2854.6434,4349380.176,0.000000674821018720386,0.0000226988567698425,-0.4850354,0.3033325,-0.8202012,-0.3724816,0.7769189,0.5075968,0.7912004,0.5517122,-0.2638474
424.08,572999.3112,6948120.216,10.15155,9.96225,-20.78595,-33.16714,9.200646,-118.3859,3.81675,-42.38115,0.007726341,-0.007314947,-0.04440919,6411.961776,4805.376216,4837.066272,-3535942.128,-5384450.496,2604068.5536,-1479.5232792,-2088.3039768,-4067.138424,3.721327584,6.703972368,-3.922279176,6.507812,0.0000202142026489397,-0.000420171345351837,-0.000670447156792871,777.32441961559,1175.61707582704,6259.14601349243,0.00000000000157029432191295,0.0000012437141459463,22.13412,-125.0646,158.5936,672.8465,-5.040318,-128.3751,8784991.12118888,47.8946635772969,641699.48,-4699138.864,91.01519,173.469,7019836.608,1678998.1152,56.29684,344.5162,59.68158,0,0,0,5.323466112,0.005430719136,-0.002292745224,-173.248,-178.905,1544642.4504,-127941.30856,0.6139717,2854.6812,4349416.752,0.000000648248232435143,0.0000218050266702504,-0.4835976,0.3012252,-0.8218253,-0.3734938,0.7781309,0.5049898,0.7916033,0.5511585,-0.2637965
430,577766.0784,6952948.248,9.195431,9.002186,-15.30461,-27.41273,10.88124,-114.1843,5.345608,-37.58629,-0.2038844,-0.003712684,-0.6998184,6554.385672,4906.73136,4945.376952,-3544830.096,-5396599.824,2579604.3912,-1526.9449776,-2016.9387144,-4204.331952,-9.14616408,11.777472,-25.34408952,6.649643,0.0000199808917229804,-0.000305799818605768,-0.00054773053182886,719.52178312938,1117.81262497135,29815.0105043959,0.00000000000148654732543933,0.00000118095366008006,21.89966,-125.096,159.8925,672.2235,-5.943551,-128.8383,8785280.71261928,49.880863311385,638300.5044,-4593554.492,91.85577,173.6014,7016438.088,1784582.0544,55.95885,344.6087,59.44615,0,0,0,26.669228856,0.04655384136,0.021667174344,-172.4741,-178.0016,1570730.8336,-129979.26788,0.5944601,2905.1292,4400510.376,0.000000640766323678275,0.0000215533551877022,-0.5004339,0.1955016,-0.8434127,-0.4262359,0.7923003,0.4365583,0.753584,0.5779614,-0.3131641
440,584962.4064,6960248.208,7.52436,7.33203,-14.82696,-21.98569,10.82704,-114.8207,5.057332,-33.45188,-0.19999,0.01904961,-0.5272841,6857.890272,5145.484248,5196.224304,-3560594.352,-5416186.272,2536171.9152,-1630.1155104,-1899.3758304,-4495.67808,-11.533138224,11.917411776,-32.82702096,6.974295,0.0000203610083109993,-0.000301891879748052,-0.000447650975106867,606.14727743262,1004.43857286696,34596.8798783522,0.00000000000137693501220701,0.00000109831329068518,21.48926,-125.1592,162.0702,679.7087,-8.218299,-129.7851,8785805.384152,55.7936162154331,632892.4792,-4336263.54,93.33599,173.7226,7011030.936,2041873.7928,55.37225,344.8699,59.10392,0,0,0,34.43959584,0.06706206552,0.03428173992,-171.1666,-176.4174,1616567.4632,-132693.83688,0.5489019,3030.7338,4526450.688,0.000000652956230192735,0.0000219633922561969,-0.4584206,0.1560261,-0.8749322,-0.4823972,0.78314,0.3924088,0.7464205,0.6019531,-0.283741
450,591010.8576,6966405.168,5.853604,5.671775,-14.4385,-16.75461,10.52941,-115.6292,4.777113,-29.38506,-0.1966716,-0.1067006,-0.3436828,7224.01908,5456.474736,5518.31256,-3577474.176,-5434605.336,2489485.6992,-1747.4101704,-1785.2300592,-4851.0444,-12.130235328,11.300667264,-38.481,7.389153,0.0000213824091476715,-0.00030872980317381,-0.000358253935085718,484.18536098702,882.47665642136,35139.8476015974,0.0000000000012880857654313,0.00000103121485335532,21.05569,-125.2361,164.3043,699.2888,-11.51488,-130.924,8786405.00876082,64.744989537738,627237.3972,-3967222.908,94.71742,173.7886,7005373.848,2410913.7456,54.83464,345.1989,58.91806,0,0,0,39.81446952,0.085569552,0.04029553536,-170.012,-174.9482,1665205.9836,-134480.86872,0.487927,3215.034,4708145.016,0.000000685711599701029,0.0000230651678198592,-0.4119335,0.1203285,-0.9032341,-0.5350002,0.7704662,0.3466361,0.7376216,0.6260214,-0.2530051
460,595830.9648,6971339.88,4.199322,4.035155,-14.00896,-11.72659,10.03553,-116.5137,4.560055,-25.33362,-0.1977521,-0.09187976,-0.3829648,7664.534328,5851.330944,5922.669384,-3595582.344,-5451899.688,2438885.8512,-1875.5389464,-1674.5428536,-5283.589128,-13.23081936,10.774113072,-47.19876768,7.908463,0.0000232151744889466,-0.000325220482570523,-0.000272234799455373,356.466676977565,754.75774561572,36425.1923748782,0.00000000000122077832250678,0.000000980285579483112,20.5934,-125.3272,166.6654,740.5665,-16.54556,-132.402,8787114.79167846,78.0753600530228,620908.002,-3426596.328,95.93183,173.8282,6999046.2,2951539.944,54.37105,345.5788,58.97807,0,0,0,48.2545644,0.10835524176,0.05257260504,-169.0721,-173.6665,1717257.5548,-135402.88692,0.4067605,3492.5196,4975293.072,0.000000744486396725627,0.0000250421754685401,-0.3619109,0.08681698,-0.9281613,-0.5840397,0.7549105,0.2983419,0.7265798,0.6500562,-0.2225058
470,599309.3424,6974939.568,2.609654,2.466803,-13.6054,-6.959692,9.335533,-117.5236,4.409916,-21.2708,-0.2000198,-0.1007678,-0.4419936,8194.06032,6345.079512,6423.64476,-3615007.248,-5468124.192,2383506.7392,-2010.4300152,-1571.6335344,-5809.317312,-13.669118712,9.924900648,-57.38753064,8.550614,0.000026187437325669,-0.000356290700826747,-0.000182256493090202,226.733997486073,625.02488468728,36341.9172180189,0.00000000000117795498110767,0.0000009477121604962,20.09519,-125.4326,169.1341,833.7065,-25.4047,-134.7111,8787989.24423299,98.0823007439489,613945.9636,-2602326.688,96.90063,173.8415,6992081.52,3775810.584,54.0089,346.0244,59.43239,0,0,0,58.13718624,0.1465803012,0.0726007692,-168.4193,-172.655,1773510.2028,-135570.34476,0.2986911,3931.5342,5383947.576,0.000000839803779141752,0.0000282483512997227,-0.3077152,0.05606264,-0.9498254,-0.6295511,0.7365086,0.2474277,0.713426,0.6741009,-0.1913406
480,601315.8408,6977073.168,1.112841,0.9914916,-12.8548,-2.325674,8.46823,-118.2721,4.413656,-17.0085,-0.197407,-0.1472964,-0.3508484,8841.001368,6965.18292,7048.146432,-3635800.704,-5483382.48,2322292.536,-2148.7598376,-1482.2265504,-6457.52328,-13.902927744,8.256538224,-71.47977576,9.350955,0.0000306630876260889,-0.000394168007621947,-0.0000713123310424634,97.647369607172,495.93839288609,35671.5791170424,0.00000000000115325081282681,0.000000928920116451597,19.55224,-125.5522,171.6452,1140.158,-48.95192,-141.7106,8789111.2690692,128.649914083738,606316.4644,-1237176.744,97.5612,173.7736,6984452.376,5140961.016,53.76782,346.6073,60.58854,0,0,0,71.9180172,0.20393412096,0.10070723064,-168.1135,-171.9787,1834914.1888,-135183.20268,0.1520355,4697.976,6062706.696,0.000000983333211534878,0.0000330762286298457,-0.251761,0.02133057,-0.9675543,-0.6723362,0.7152571,0.1907127,0.6961181,0.6985358,-0.1657325
490,601865.7,6977762.016,0.1092547,0.002570126,-12.80477,1.397386,7.291296,-119.4773,4.220328,-13.19664,-0.1840827,-0.4595654,0.01070326,9399.172464,7509.074136,7592.967288,-3657795.072,-5497860.48,2254599.8088,-2232.4880928,-1415.1562248,-7028.477688,-3.921471456,6.454377744,-43.20003552,10.04905,0.0000352046259508917,-0.000450787132070079,0.0000491944284485691,7.3810047301221,405.672059760506,15389.579045641,0.00000000000114648028128958,0.000000923770115795672,18.95901,-125.6836,171.4979,,,,8790570.58274786,160.928569872632,600588.0432,420609.7572,97.78515,171.7157,6978725.184,6798746.88,53.68816,349.2509,62.2747,0,0,0,37.9309884,0.1237931484,0.058427112,-168.1721,-171.7706,1902024.372,-134569.33876,0.01306322,5690.1042,6888736.032,0.00000112897554919525,0.0000379751796449373,-0.1948537,0.0001219098,-0.9808323,-0.7089972,0.6909848,0.1409364,0.6777574,0.7228693,-0.1345545
492.96,601844.364,6977780.304,0.03064414,-0.07431193,-14.76909,0.5561512,6.103272,-121.7493,2.825337,-13.67298,-0.6493241,-0.72245,0.3171005,9446.291496,7553.943744,7637.855184,-3664406.184,-5502017.952,2233684.7376,-2228.6104272,-1395.7489992,-7081.473264,4.060097544,6.512375088,-3.894371688,10.10658,0.0000356170425616189,-0.000526031677261562,0.0000198084605463145,0.6670574752457,398.956579363419,128.459524793866,0.00000000000114674467062342,0.00000092397169168598,18.77669,-125.7237,153.7963,,,,8791053.23513186,163.867184716925,600510.8148,583607.2404,97.79312,153.8576,6978648.984,6961744.776,53.68539,7.292031,62.45178,0,0,0,0.3215530272,0.012090967944,0.01039936452,-168.1898,-171.7711,1922644.54,-134389.06508,0.001212561,5791.3314,6970196.88,0.00000114220144652391,0.0000384200507369011,-0.1823421,0.04201054,-0.9823372,-0.7166132,0.6783891,0.1620302,0.6732138,0.7335008,-0.09359359
500,601773.3456,6977807.736,0.02559644,-0.07723197,-9.646953,6.015542,0.7235736,-117.2517,-0.7057628,-6.898449,-0.4662933,2.287467,0.09165717,9447.83988,7555.422024,7639.403568,-3679990.608,-5511683.16,2183760.3264,-2198.3635992,-1350.0777672,-7101.330984,4.348310328,6.54173952,-2.7539155488,10.10858,0.0000356582531005232,-0.000343993422391792,0.000214503703872681,0.447198668030191,398.546486501702,64.5770572995443,0.00000000000114761772234178,0.000000924635312075447,18.34234,-125.8189,147.1935,,,,8792208.19389544,164.031627223284,600586.7468,589079.7152,97.79282,147.2447,6978725.184,6967215.936,53.68549,14.34166,62.4586,0,0,0,0.16200888096,0.0007311780144,0.0004206706344,-168.2025,-171.7923,1971765.136,-133945.88148,0.0008251181,5794.7898,6972970.56,0.0000011435230131658,0.0000384645018155024,-0.1748218,-0.06286792,-0.982591,-0.7995153,0.5915024,0.1044037,0.5746413,0.8038486,-0.1536714
510,601672.4568,6977841.264,0.02588845,-0.07395787,1.400343,5.704914,-1.158052,-107.0245,-2.570588,-6.630136,0.01868895,0.08979145,-0.008027153,9448.92192,7556.531496,7640.616672,-3701759.424,-5524862.712,2112614.2152,-2155.4063064,-1285.6214064,-7127.592552,4.32375564,6.469706136,-2.5562719512,10.11016,0.0000357079623853966,0.0000500034133043009,0.000203710823174888,0.29383350854704,398.211826051116,27.1256646462471,0.00000000000114885926991529,0.000000925579989585129,17.72518,-125.9536,131.163,,,,8793849.21200102,164.200953036116,601134.3832,592758.528,97.79256,131.2148,6979270.776,6970894.872,53.68558,30.99202,62.46274,0,0,0,0.06810917544,0.00030836616,0.00017769730272,-168.2192,-171.8211,2041550.348,-133275.939,0.000600416,5797.4238,6975082.824,0.00000114511681097055,0.0000385181251270744,-0.2782228,-0.2017734,-0.9390844,-0.8150604,0.5668809,0.1196771,0.5082014,0.7987074,-0.3221767
